[
  {
    "name": "Whitman-walker Health/1525 Clinic",
    "lat": 38.910467,
    "lon": -77.031595,
    "address": "1525 14th St Nw Washington, DC, 20005",
    "phone": "(202) 939-7686"
  },
  {
    "name": "Carl Vogel Center",
    "lat": 38.903226,
    "lon": -77.032320,
    "address": "1012 14th St Nw Ste 700 Washington, DC, 20005-3477",
    "phone": "(202) 638-0750"
  },
  {
    "name": "Whitman-walker Health/Elizabeth Taylor Medical Center",
    "lat": 38.912804,
    "lon": -77.031591,
    "address": "1701 14th St Nw Washington, DC, 20009-4308",
    "phone": "(202) 745-7000"
  },
  {
    "name": "Sam Medical Center of America Pllc",
    "lat": 38.902913,
    "lon": -77.048066,
    "address": "2141 K St Nw Ste 607 Washington, DC, 20037",
    "phone": "(202) 223-0969"
  },
  {
    "name": "The George Washington University",
    "lat": 38.904902,
    "lon": -77.050739,
    "address": "2300 M Street Nw Washington, DC, 20037",
    "phone": "(202) 741-2500"
  },
  {
    "name": "Community of Hope Marie Reed Clinic",
    "lat": 38.919422,
    "lon": -77.040347,
    "address": "2250 Champlain Street, Nw Washington, DC, 20009",
    "phone": "(202) 232-9022"
  },
  {
    "name": "Mama Baby Bus (mobile health unit)",
    "lat": 38.920963,
    "lon": -77.039802,
    "address": "2333 Ontario Rd NW Washington, DC, 20009-2627",
    "phone": "(202) 483-8319"
  },
  {
    "name": "Children\"s Health Center at Shaw",
    "lat": 38.919886,
    "lon": -77.027332,
    "address": "2220 11th Street Nw Washington, DC, 20001",
    "phone": "(202) 476-2535"
  },
  {
    "name": "Howard University Hospital",
    "lat": 38.917523,
    "lon": -77.019989,
    "address": "2041 Georgia Avenue Nw Washington, DC, 20060",
    "phone": "(202) 806-9477"
  },
  {
    "name": "Unity Health Care Unity Columbia Road Health Services",
    "lat": 38.924897,
    "lon": -77.038699,
    "address": "1660 Columbia Rd, NW Washington, DC, 20009",
    "phone": "(202) 328-3717"
  },
  {
    "name": "La Clinica Del Pueblo",
    "lat": 38.925911,
    "lon": -77.035205,
    "address": "2831 15th ST, NW Washington, DC, 20009",
    "phone": "(202) 462-4788"
  },
  {
    "name": "Unity Health Care Unity Upper Cardozo Health Center",
    "lat": 38.928161,
    "lon": -77.033007,
    "address": "3020 14th St., NW Washington, DC, 20009",
    "phone": "(202) 745-4300"
  },
  {
    "name": "Unity Federal City (CCNV) Health Center",
    "lat": 38.895439,
    "lon": -77.013292,
    "address": "425 2ND ST., NW Washington, DC, 20001",
    "phone": "(202) 508-0500"
  },
  {
    "name": "Unity Health Care Unity Walker-Jones Health Center",
    "lat": 38.906652,
    "lon": -77.007887,
    "address": "40 Patterson St NE Washington, DC, 20002-3334",
    "phone": "(202) 354-1120"
  },
  {
    "name": "Women and Infants Services",
    "lat": 38.929684,
    "lon": -77.013712,
    "address": "106 Irving Street Suite 4700N Washington, DC, 20010",
    "phone": "(202) 877-7479"
  },
  {
    "name": "U.S. Department of Veterans Affairs/washington Dc Va Medical Center",
    "lat": 38.931168,
    "lon": -77.012065,
    "address": "50 Irving St Nw Washington, DC, 20422",
    "phone": "(202) 745-8000"
  },
  {
    "name": "Mary\"s Center",
    "lat": 38.939189,
    "lon": -77.025033,
    "address": "3912 Georgia Avenue, NW Washington, DC, 20011",
    "phone": "(202) 483-8196"
  },
  {
    "name": "Unity Health Care Unity Southwest Health Center",
    "lat": 38.879612,
    "lon": -77.012422,
    "address": "850 Delaware Ave., SW Washington, DC, 20024",
    "phone": "(202) 548-4520"
  },
  {
    "name": "Unity Health Care Unity Brentwood Square Health Center",
    "lat": 38.921809,
    "lon": -76.989444,
    "address": "1251-B Saratoga Avenue, NE Washington, DC, 20018",
    "phone": "(202) 832-8818"
  },
  {
    "name": "Andromeda Transcultural Health Center Incorporated",
    "lat": 38.948087,
    "lon": -77.033036,
    "address": "1400 Decatur St Nw Washington, DC, 20011",
    "phone": "(202) 743-7942"
  },
  {
    "name": "Community of Hope Family Health and Birth Center",
    "lat": 38.900825,
    "lon": -76.978126,
    "address": "801 17th Street, Ne Washington, DC, 20002",
    "phone": "(202) 407-7748"

  }
]